<?xml version="1.0" encoding="UTF-8"?>
<kml xmlns="http://www.opengis.net/kml/2.2">
  <Document>
    <Placemark>
      <name>Oyster Beds, Mulford's Landing? [https://sanle.ent.sirsi.net/client/en_US/search/asset/5383/0]</name>
      <description>[00000249] Oyster Beds, Mulford's Landing? [https://slhpa-03.appspot.com/slhpa/detail/00000249/]</description>
      <Point>
        <coordinates>-122.18977,37.70097,0</coordinates>
      </Point>
    </Placemark>
    <Placemark>
      <name>Residence of Robert and Henrietta Farelly located at Dutton and Chetland. [https://sanle.ent.sirsi.net/client/en_US/search/asset/5428/0]</name>
      <description>[00000294] Residence of Robert and Henrietta Farelly located at Dutton and Chetland. (Opposite Chevrolet Plant). [https://slhpa-03.appspot.com/slhpa/detail/00000294/]</description>
      <Point>
        <coordinates>-122.146884,37.734287,0</coordinates>
      </Point>
    </Placemark>
    <Placemark>
      <name>Freeman Home [https://sanle.ent.sirsi.net/client/en_US/search/asset/6036/0]</name>
      <description>[00000902] 34 Oakes Blvd., San Leandro. [https://slhpa-03.appspot.com/slhpa/detail/00000902/]</description>
      <Point>
        <coordinates>-122.159193,37.730716,0</coordinates>
      </Point>
    </Placemark>
    <Placemark>
      <name>Farrelly Swimming Pool [https://sanle.ent.sirsi.net/client/en_US/search/asset/6129/0]</name>
      <description>[00000995] Farrelly Swimming Pool. [https://slhpa-03.appspot.com/slhpa/detail/00000995/]</description>
      <Point>
        <coordinates>-122.146637,37.734313,0</coordinates>
      </Point>
    </Placemark>
    <Placemark>
      <name>Broadmoor Community Church [https://sanle.ent.sirsi.net/client/en_US/search/asset/6137/0]</name>
      <description>[00001003] Broadmoor Community Church, 301 Dowling Blvd., San Leandro. [https://slhpa-03.appspot.com/slhpa/detail/00001003/]</description>
      <Point>
        <coordinates>-122.156267,37.732489,0</coordinates>
      </Point>
    </Placemark>
    <Placemark>
      <name>Washington School [https://sanle.ent.sirsi.net/client/en_US/search/asset/6173/0]</name>
      <description>[00001040] Washington School. [https://slhpa-03.appspot.com/slhpa/detail/00001040/]</description>
      <Point>
        <coordinates>-122.156815,37.732368,0</coordinates>
      </Point>
    </Placemark>
    <Placemark>
      <name>Washington Grammar School [https://sanle.ent.sirsi.net/client/en_US/search/asset/6399/0]</name>
      <description>[00001267] Washington Elementary School. Dutton Avenue. Principal was R. Banta. [https://slhpa-03.appspot.com/slhpa/detail/00001267/]</description>
      <Point>
        <coordinates>-122.156815,37.732368,0</coordinates>
      </Point>
    </Placemark>
    <Placemark>
      <name>Eber Home, 1880 [https://sanle.ent.sirsi.net/client/en_US/search/asset/5563/0]</name>
      <description>[00000429] 63 Callan Ave. Henry F. Eber; Winnie, his daughter; Laura, his wife. Budd Eber was born in this house in 1881. [https://slhpa-03.appspot.com/slhpa/detail/00000429/]</description>
      <Point>
        <coordinates>-122.156444,37.726009,0</coordinates>
      </Point>
    </Placemark>
    <Placemark>
      <name>East 14th St. at 141st, Looking South, Spring, 1943 [https://sanle.ent.sirsi.net/client/en_US/search/asset/5603/0]</name>
      <description>[00000469] East 14th St. at 141st, Looking South, Spring, 1943. [https://slhpa-03.appspot.com/slhpa/detail/00000469/]</description>
      <Point>
        <coordinates>-122.138850,37.712983,0</coordinates>
      </Point>
    </Placemark>
    <Placemark>
      <name>1897 Hayes Street Scene Showing the First Methodist Church and the Saramento Blacksmith Shop [https://sanle.ent.sirsi.net/client/en_US/search/asset/5984/0]</name>
      <description>[00000850] Shop owner George Saramento appears in doorway. [https://slhpa-03.appspot.com/slhpa/detail/00000850/]</description>
      <Point>
        <coordinates>-122.153942,37.719262,0</coordinates>
      </Point>
    </Placemark>
    <Placemark>
      <name>Residence of Mrs. Henrietta Farrelly. August 13, 1914 [https://sanle.ent.sirsi.net/client/en_US/search/asset/6847/0]</name>
      <description>[00001731] William H. Weeks, Architect. [https://slhpa-03.appspot.com/slhpa/detail/00001731/]</description>
      <Point>
        <coordinates>-122.146884,37.734287,0</coordinates>
      </Point>
    </Placemark>
    <Placemark>
      <name>Slate House, Lake Chabot, San Leandro, 1915 [https://sanle.ent.sirsi.net/client/en_US/search/asset/5160/0]</name>
      <description>[00000023] Slate House situated at Lake Chabot in San Leandro. Chabot Dam Superintendent George Logan sitting on steps. The residence was built in 1904. Photograph 1915. [https://slhpa-03.appspot.com/slhpa/detail/00000023/]</description>
      <Point>
        <coordinates>-122.12402,37.73089,0</coordinates>
      </Point>
    </Placemark>
    <Placemark>
      <name>Beach, Foot of Davis St. ca 1920 [https://sanle.ent.sirsi.net/client/en_US/search/asset/5531/0]</name>
      <description>[00000397] Beach, Foot of Davis St. ca 1920. [https://slhpa-03.appspot.com/slhpa/detail/00000397/]</description>
      <Point>
        <coordinates>-122.19608,37.71362,0</coordinates>
      </Point>
    </Placemark>
    <Placemark>
      <name>Polvorosa Boys, 1923 [https://sanle.ent.sirsi.net/client/en_US/search/asset/5686/0]</name>
      <description>[00000552] 141 Dabner St. Frank Polvorosa, Julian Polvorosa, Sr., Tony Polvorosa. [https://slhpa-03.appspot.com/slhpa/detail/00000552/]</description>
      <Point>
        <coordinates>-122.167797,37.723329,0</coordinates>
      </Point>
    </Placemark>
    <Placemark>
      <name>Roosevelt School, ca 1930 [https://sanle.ent.sirsi.net/client/en_US/search/asset/6167/0]</name>
      <description>[00001034] Roosevelt School, ca 1930. [https://slhpa-03.appspot.com/slhpa/detail/00001034/]</description>
      <Point>
        <coordinates>-122.1469,37.73595,0</coordinates>
      </Point>
    </Placemark>
    <Placemark>
      <name>Washington School Crossing Guards, 1934 [https://sanle.ent.sirsi.net/client/en_US/search/asset/5706/0]</name>
      <description>[00000572] Washington School Crossing Guards, 1934. [https://slhpa-03.appspot.com/slhpa/detail/00000572/]</description>
      <Point>
        <coordinates>-122.156726,37.732398,0</coordinates>
      </Point>
    </Placemark>
    <Placemark>
      <name>Neighborhood Kids on the Way to School, April, 1935 [https://sanle.ent.sirsi.net/client/en_US/search/asset/6593/0]</name>
      <description>[00001465] 2201 Cherry St., San Leandro. [https://slhpa-03.appspot.com/slhpa/detail/00001465/]</description>
      <Point>
        <coordinates>-122.152323,37.716600,0</coordinates>
      </Point>
    </Placemark>
    <Placemark>
      <name>Farrelly Swimming Pool, San Leandro, Located behind Roosevelt School, Taken June 1, 1938 [https://sanle.ent.sirsi.net/client/en_US/search/asset/6338/0]</name>
      <description>[00001205] Farrelly Swimming Pool, San Leandro, Located behind Roosevelt School, Taken June 1, 1938. [https://slhpa-03.appspot.com/slhpa/detail/00001205/]</description>
      <Point>
        <coordinates>-122.146637,37.734313,0</coordinates>
      </Point>
    </Placemark>
    <Placemark>
      <name>Street Scene taken at Bancroft and Dutton Avenues, 1940 CA [https://sanle.ent.sirsi.net/client/en_US/search/asset/6087/0]</name>
      <description>[00000953] Included among the stores are Storm's Market and Carlson Hardware. [https://slhpa-03.appspot.com/slhpa/detail/00000953/]</description>
      <Point>
        <coordinates>-122.151027,37.733621,0</coordinates>
      </Point>
    </Placemark>
    <Placemark>
      <name>Skillen House, 1957 [https://sanle.ent.sirsi.net/client/en_US/search/asset/6432/0]</name>
      <description>[00001300] 304 Chumalia Avenue (and Jefferson). House with picket fence, backing on the creek, occupied by John Skillen and family 1883 - 1957, unoccupied for 14 years, to be torn down. Rented from Francisco Cardozo Sr. in 1883, so possibly built by him. [https://slhpa-03.appspot.com/slhpa/detail/00001300/]</description>
      <Point>
        <coordinates>-122.153821,37.728018,0</coordinates>
      </Point>
    </Placemark>
    <Placemark>
      <name>Washington School - Little girl walking towards front door, 1958 [https://sanle.ent.sirsi.net/client/en_US/search/asset/6210/0]</name>
      <description>[00001077] Washington School, 250 Dutton Ave., 1958 Little girl identified as Andrea Galvan. [https://slhpa-03.appspot.com/slhpa/detail/00001077/]</description>
      <Point>
        <coordinates>-122.156726,37.732398,0</coordinates>
      </Point>
    </Placemark>
    <Placemark>
      <name>First Masonic Temple Club, 1966 [https://sanle.ent.sirsi.net/client/en_US/search/asset/5368/0]</name>
      <description>[00000233] About 1320 Clark St. near W. Estudillo. [https://slhpa-03.appspot.com/slhpa/detail/00000233/]</description>
      <Point>
        <coordinates>-122.15794,37.72351,0</coordinates>
      </Point>
    </Placemark>
  </Document>
</kml>
